<?xml version="1.0" encoding="UTF-8"?>
<gpx version="1.1"
     creator="QLandkarteGT 1.2.2 http://www.qlandkarte.org/"
     xmlns:xsi="http://www.w3.org/2001/XMLSchema-instance"
     xmlns="http://www.topografix.com/GPX/1/1"
     xsi:schemaLocation="http://www.topografix.com/GPX/1/1 http://www.topografix.com/GPX/1/1/gpx.xsd">
 <metadata>
  <name>XC Routes</name>
  <desc>Possible paragliding XC routes, avoiding airspace as much as
        possible</desc>
  <author>
   <name>Bart Vandewoestyne</name>
   <link href="https://plus.google.com/108476541542561906992/">
     <text>Google+ Profile</text>
   </link>
  </author>
 </metadata>
 <rte>
  <name>Anderlues - Signy-le-Petit</name>
  <rtept lon="4.295043" lat="50.408241">
   <name>Terril Anderlues</name>
   <sym>Pin, Red</sym>
  </rtept>
  <rtept lon="4.101396" lat="50.296894">
   <name>Jeumont</name>
   <sym>Pin, Red</sym>
  </rtept>
  <rtept lon="4.103534" lat="50.059235">
   <name>Trélon</name>
   <sym>Pin, Red</sym>
  </rtept>
  <rtept lon="4.279491" lat="49.903564">
   <name>Signy-le-Petit</name>
   <cmt>Church</cmt>
   <desc>Church</desc>
   <sym>Pin, Red</sym>
  </rtept>
 </rte>
 <rte>
  <name>Levant - Kortrijk</name>
  <cmt>Bart's dreamroute</cmt>
  <desc>This is the route that Bart would love to fly one day.</desc>
  <rtept lon="3.902208" lat="50.436116">
   <name>Terril du Levant</name>
   <sym>Pin, Red</sym>
  </rtept>
  <rtept lon="3.602536" lat="50.534426">
   <name>E42-N60</name>
   <cmt>Crossing of the E42 with the N60</cmt>
   <desc>Crossing of the E42 with the N60</desc>
   <sym>Pin, Red</sym>
  </rtept>
  <rtept lon="3.483632" lat="50.759150">
   <name>La Sablière</name>
   <cmt>Hotel</cmt>
   <desc>Hotel at the border of the Kluisbos</desc>
   <sym>Pin, Red</sym>
  </rtept>
  <rtept lon="3.298916" lat="50.823852">
   <name>Kapel ter Bede</name>
   <cmt>Little chapel</cmt>
   <desc>Little chapel</desc>
   <sym>Pin, Red</sym>
  </rtept>
 </rte>
 <rte>
  <name>Grauves - Beauraing</name>
  <cmt>One of Paul's routes</cmt>
  <desc>One of Paul's routes</desc>
  <rtept lon="3.9636" lat="48.9823">
   <name>Grauves</name>
   <sym>Pin, Red</sym>
  </rtept>
  <rtept lon="5.009863" lat="50.113006">
   <name>Beauraing</name>
   <sym>Pin, Red</sym>
  </rtept>
 </rte>
 <rte>
  <name>Dannes - Kortrijk</name>
  <rtept lon="1.631587" lat="50.579600">
   <name>Dannes</name>
   <sym>Pin, Red</sym>
  </rtept>
  <rtept lon="2.339160" lat="50.754247">
   <name>Étang d'Harchelles</name>
   <sym>Pin, Red</sym>
  </rtept>
  <rtept lon="2.486124" lat="50.799909">
   <name>Cassel</name>
   <sym>Pin, Red</sym>
  </rtept>
  <rtept lon="3.298916" lat="50.823852">
   <name>Kapel ter Bede</name>
   <cmt>Little chapel</cmt>
   <desc>Little chapel</desc>
   <sym>Pin, Red</sym>
  </rtept>
 </rte>
</gpx>
